time,altitude,mass,speed,pos_x,pos_y,pos_z,pitch,heading,roll,vel_x,vel_y,vel_z,horizontal_speed,vertical_speed,thrust_x,thrust_y,thrust_z,grav_x,grav_y,grav_z,drag_x,drag_y,drag_z,apoapsis,periapsis,vessel_angle,mun_angle,phase_angle
0.0,89.769912,899023.3125,0.000794,167772.489722,-1069.261526,-607342.050677,16.168423,283.390764,-94.948705,0.000132,-8.4e-05,-0.000652,0.000203,-0.001503,0.0,0.0,0.0,-0.278141,0.001773,1.006882,-0.000354,-0.000673,-4.2e-05,89.769914,-628356.920767,-78.285574,-42.485309,35.800265
0.5199999999995271,89.770362,899023.3125,0.002447,167773.414821,-1069.267251,-607345.402031,16.166302,283.396461,-94.945656,-0.001976,0.000802,-0.001201,0.002227,0.000682,0.0,0.0,0.0,-0.278137,0.001773,1.006867,0.003477,-0.001205,0.000987,89.770361,-628360.428053,-78.286006,-42.491176,35.794831
1.0399999999990541,89.77086,899023.3125,0.001803,167774.340396,-1069.273237,-607348.753302,16.165878,283.397704,-94.943087,0.0015,-0.000909,-0.000416,0.001633,0.000634,0.0,0.0,0.0,-0.278139,0.001773,1.006874,-0.002145,0.001272,-0.000573,89.77086,-628363.831395,-78.286438,-42.499117,35.787321
1.5599999999985812,89.771355,899023.3125,0.00116,167775.266374,-1069.27923,-607352.104459,16.167281,283.399076,-94.942906,-0.000532,0.000553,-0.00087,0.000954,0.000737,0.0,0.0,0.0,-0.278147,0.001773,1.0069,0.000721,-0.000493,0.000286,89.771355,-628367.335875,-78.28687,-42.507059,35.779811
2.0799999999981083,89.771849,899023.3125,0.000769,167776.191781,-1069.284994,-607355.455773,16.166313,283.401216,-94.940682,0.000272,-0.000358,-0.000624,0.000403,0.000675,0.0,0.0,0.0,-0.278148,0.001773,1.006904,-0.000123,0.00034,8.5e-05,89.771849,-628370.787976,-78.287302,-42.515001,35.772302
2.5999999999976353,89.772346,899023.3125,0.000684,167777.117674,-1069.291113,-607358.806956,16.167075,283.401979,-94.941054,0.000189,1.2e-05,-0.000658,3.1e-05,0.000747,0.0,0.0,0.0,-0.278157,0.001773,1.006937,0.0,-6e-06,0.0001,89.772346,-628374.256757,-78.287734,-42.522943,35.764792
3.6599999999966712,91.012083,896358.8125,3.761646,167778.404249,-1069.306723,-607363.344142,15.940257,283.73405,-94.910559,1.068535,-0.138884,-3.604015,0.155273,3.87719,94751.986843,14496887.771544,79846.204045,-0.438713,0.002796,1.588154,-242.518875,222.121611,444.235669,91.701616,-628376.448796,-78.288163,-42.538888,35.749275
4.179999999996198,93.810536,893793.0625,6.848587,167780.089002,-1069.32859,-607369.388422,15.713436,284.152902,-94.845735,1.802233,0.126399,-6.605992,0.151318,6.966485,79640.406337,14496793.225373,175980.64391,-0.43997,0.002804,1.592706,-406.54675,-69.778877,1200.700779,96.098829,-628381.538957,-78.288594,-42.54683,35.741763
4.699999999995725,98.222447,891227.375,9.969816,167782.14826,-1069.215084,-607377.003374,15.618831,284.006807,-94.904917,2.520728,0.293607,-9.641419,0.344048,10.084453,93339.998127,14498071.559632,143907.576989,-0.441223,0.002812,1.597244,-658.754079,-518.485963,2708.332214,103.06822,-628387.030039,-78.28903,-42.554773,35.734257
5.219999999995252,104.262383,888661.625,13.114075,167784.584869,-1069.053999,-607386.203173,15.609143,283.820654,-94.956424,3.254812,0.33759,-12.69926,0.437849,13.228229,105229.661496,14499699.563745,101816.36102,-0.44248,0.002819,1.601794,-962.637928,-791.454285,4762.722207,112.647255,-628392.342819,-78.289472,-42.562715,35.726757
5.7399999999947795,111.943289,886095.875,16.282129,167787.408426,-1068.87895,-607396.998539,15.63227,283.723232,-94.981326,4.007804,0.356943,-15.77713,0.51481,16.396379,110909.628982,14501498.033477,79518.07405,-0.443734,0.002827,1.606336,-1351.998725,-1012.059185,7354.163757,124.870381,-628397.407352,-78.289919,-42.570657,35.719261
6.259999999994307,121.277801,883530.125,19.474487,167790.627664,-1068.693554,-607409.400159,15.659114,283.68817,-94.990647,4.774999,0.378736,-18.876217,0.593797,19.588754,112962.442226,14503572.844153,71300.202174,-0.444988,0.002834,1.610878,-1839.728442,-1249.927409,10514.602116,139.772722,-628402.309846,-78.29037,-42.5786,35.71177
6.779999999993834,132.278518,880964.4375,22.691164,167794.248638,-1068.49534,-607423.419438,15.680927,283.680185,-94.994231,5.55189,0.405822,-21.997744,0.676447,22.805333,113682.45139,14505974.851281,69235.880043,-0.446243,0.002842,1.615421,-2420.225233,-1521.775477,14246.394331,157.389671,-628407.133727,-78.290825,-42.586542,35.704283
7.299999999993361,144.958039,878398.75,25.932127,167798.275721,-1068.282199,-607439.068243,15.697966,283.68018,-94.996342,6.336376,0.435709,-25.142309,0.761278,26.046136,114064.776706,14508720.3176,69000.728203,-0.447497,0.002849,1.619966,-3092.42095,-1824.942353,18557.845299,177.756928,-628411.918111,-78.291284,-42.594485,35.6968
7.819999999992888,159.32898,875832.9375,29.197359,167802.712699,-1068.053204,-607456.358617,15.712121,283.681233,-94.998036,7.127971,0.466486,-28.310072,0.846841,29.43725,114355.563808,14511813.03538,68992.683501,-0.448752,0.002856,1.624509,-3859.036687,-2154.127912,23457.190768,200.910477,-628416.67211,-78.291749,-42.602724,35.689025
8.339999999992415,175.403965,873267.25,32.486865,167807.56325,-1067.808196,-607475.302641,15.725154,283.681901,-94.999625,7.926623,0.497241,-31.501077,0.935699,32.727523,114616.882907,14515257.223398,68886.674235,-0.450005,0.002864,1.629052,-4760.180258,-2517.160713,29172.688378,227.942485,-628421.444597,-78.292217,-42.610667,35.681551
8.859999999991942,193.195635,870701.4375,35.800657,167812.831036,-1067.547223,-607495.912418,15.736745,283.681992,-95.001319,8.732333,0.527808,-34.71534,1.020999,36.042098,114910.23856,14519049.370538,68657.098471,-0.451259,0.002871,1.633592,-5734.023063,-2885.083514,35285.261831,256.888354,-628426.138602,-78.292688,-42.61861,35.67408
9.379999999991469,212.716651,868135.75,39.138748,167818.519763,-1067.270456,-607518.200059,15.748241,283.68173,-95.003614,9.545135,0.558084,-37.952873,1.112427,39.638818,115324.965202,14523350.154905,68374.640659,-0.452511,0.002878,1.638131,-6863.005818,-3282.237621,42267.890835,291.301894,-628430.893704,-78.293167,-42.627146,35.666021
9.899999999990996,233.979657,865569.9375,42.501151,167824.63308,-1066.978069,-607542.177673,15.757044,283.681789,-95.00554,10.364917,0.587853,-41.21372,1.187101,42.61442,115718.576396,14527667.806573,68120.682174,-0.453762,0.002885,1.642666,-7971.021033,-3643.197203,49019.180709,322.116661,-628435.394623,-78.293641,-42.634199,35.659441
10.419999999990523,256.997341,863004.25,45.887877,167831.174598,-1066.670209,-607567.857426,15.766297,283.68156,-95.007602,11.191602,0.617512,-44.49791,1.271273,46.001049,116110.820342,14532493.989257,67821.243038,-0.455013,0.002892,1.647197,-9288.730958,-4046.67479,56914.77138,359.75066,-628440.005334,-78.294124,-42.642142,35.651981
10.93999999999005,281.782361,860438.5,49.298933,167838.147885,-1066.347039,-607595.251463,15.77494,283.681202,-95.009384,12.025053,0.646803,-47.805487,1.355164,49.412023,116440.818371,14537659.073611,67475.604235,-0.456261,0.002899,1.651724,-10731.25091,-4456.777227,65418.087746,400.392284,-628444.591916,-78.29461,-42.650086,35.644527
11.459999999989577,308.347375,857872.8125,52.734322,167845.55645,-1066.00873,-607624.371947,15.783231,283.68078,-95.011255,12.865306,0.675704,-51.136446,1.438682,52.847348,116796.427371,14543162.207523,67116.847376,-0.457509,0.002906,1.656245,-12306.493063,-4870.756409,74531.814105,444.079262,-628449.153606,-78.295101,-42.658029,35.637072
11.979999999989104,336.705062,855307.0625,56.194042,167853.403829,-1065.655468,-607655.231055,15.791074,283.680294,-95.013573,13.712309,0.70436,-54.490796,1.521945,56.307017,117258.132695,14549000.519462,66772.369963,-0.458754,0.002913,1.660761,-14018.557177,-5288.845075,84256.832349,490.849558,-628453.691251,-78.295595,-42.665972,35.629329
12.499999999988631,366.868098,852741.375,59.678086,167861.693533,-1065.287478,-607687.840967,15.798436,283.680001,-95.015404,14.566065,0.732425,-57.868534,1.604739,59.79103,117608.904871,14555168.370959,66450.978815,-0.459998,0.002919,1.665269,-15873.442963,-5700.269292,94586.343799,540.741382,-628458.204659,-78.296093,-42.673916,35.62218
13.019999999988158,398.84914,850175.5625,63.18646,167870.429035,-1064.904934,-607722.213853,15.805349,283.679835,-95.017322,15.426446,0.760339,-61.269694,1.687426,63.299382,117983.920561,14561660.440675,66161.487061,-0.461239,0.002926,1.669772,-17873.199267,-6111.44704,105516.60785,593.793177,-628462.696086,-78.296595,-42.681859,35.614739
13.539999999987685,432.660865,847609.8125,66.719156,167879.613772,-1064.507935,-607758.361917,15.811942,283.679349,-95.0192,16.293382,0.787945,-64.694286,1.769945,66.832068,118351.621725,14568478.51522,65799.017122,-0.462479,0.002933,1.674268,-20022.068812,-6520.934367,117047.062363,650.043628,-628467.166648,-78.297101,-42.690099,35.607005
14.059999999987213,468.315933,845044.125,70.276165,167889.251177,-1064.09673,-607796.297343,15.818535,283.678927,-95.021335,17.166948,0.814924,-68.142286,1.85523,70.526361,118770.526594,14575613.242231,65469.203057,-0.463716,0.002939,1.678756,-22420.124794,-6934.197093,129664.505185,711.884717,-628471.652229,-78.297614,-42.698043,35.599571
14.57999999998674,505.826995,842478.3125,73.857473,167899.344672,-1063.67156,-607836.032311,15.824968,283.678762,-95.023582,18.047055,0.841762,-71.613697,1.943611,74.385149,119229.062339,14583349.105568,65221.143433,-0.464951,0.002946,1.683235,-24989.114054,-7336.879178,142926.354635,779.750607,-628476.151678,-78.298134,-42.706876,35.591264
15.099999999986267,545.206707,839912.625,77.463068,167909.897658,-1063.232515,-607877.579009,15.830055,283.678917,-95.025228,18.933685,0.868178,-75.108513,2.015982,77.576023,119566.009516,14590814.027141,64973.776261,-0.466184,0.002952,1.687706,-27416.337609,-7683.940307,155242.229272,838.377154,-628480.448724,-78.298641,-42.713634,35.585007
15.619999999985794,586.467709,837346.8125,81.092948,167920.913517,-1062.779815,-607920.949618,15.835558,283.6792,-95.026994,19.82679,0.89444,-78.626742,2.097806,81.205934,119920.79969,14598870.950254,64781.273479,-0.467414,0.002958,1.692171,-30199.326871,-8048.781725,169137.153062,907.813628,-628484.835226,-78.299162,-42.721578,35.577583
16.13999999998532,629.622638,834781.125,84.747104,167932.395608,-1062.313541,-607966.156319,15.840934,283.679355,-95.028535,20.726336,0.920318,-82.168386,2.179503,84.860131,120224.547472,14607224.691842,64553.124618,-0.468642,0.002965,1.696628,-33143.182909,-8399.642829,183602.715388,980.645738,-628489.202172,-78.299686,-42.729522,35.569871
16.659999999984848,674.684143,832215.4375,88.42553,167944.347291,-1061.83388,-608013.211305,15.846277,283.679702,-95.030205,21.63237,0.945939,-85.733425,2.261089,88.538607,120561.462598,14615865.781395,64375.620947,-0.469869,0.002971,1.701077,-36245.677379,-8736.629693,198628.233012,1056.913666,-628493.548567,-78.300215,-42.737467,35.562455
17.179999999984375,721.664847,829649.6875,92.128224,167956.771944,-1061.340941,-608062.12674,15.851428,283.679953,-95.031779,22.544887,0.971401,-89.321857,2.342616,92.241358,120878.794373,14624791.825653,64176.780024,-0.471093,0.002977,1.70552,-39507.892865,-9062.669608,214205.406042,1136.657886,-628497.874338,-78.300747,-42.745411,35.555043
17.699999999983902,770.577389,827083.9375,95.855182,167969.672947,-1060.834859,-608112.914802,15.856419,283.680204,-95.033594,23.46389,0.996581,-92.933679,2.424031,95.968382,121255.812036,14633992.602745,63983.561565,-0.472315,0.002983,1.709957,-42930.868239,-9377.093605,230322.532413,1219.919178,-628502.179326,-78.301282,-42.753355,35.547927
18.21999999998343,821.434404,824518.1875,99.606401,167983.053635,-1060.315718,-608165.587676,15.861282,283.679974,-95.035456,24.389259,1.021432,-96.568918,2.50539,99.719674,121646.270995,14643462.676419,63685.755732,-0.473535,0.002989,1.714386,-46505.805138,-9685.513117,246976.115239,1306.738557,-628506.46558,-78.301822,-42.761596,35.54023
18.739999999982956,874.248527,821952.5,103.38188,167996.917357,-1059.783778,-608220.157546,15.866081,283.679809,-95.037342,25.321124,1.045879,-100.22754,2.586563,103.495236,122044.083404,14653199.492212,63399.281506,-0.474754,0.002995,1.71881,-50232.041233,-9982.656525,264147.814526,1397.157412,-628510.73062,-78.302365,-42.769244,35.532829
19.259999999982483,929.032387,819386.75,107.18164,168011.267483,-1059.239214,-608276.636581,15.870719,283.679643,-95.038684,26.259423,1.069983,-103.909585,2.667618,107.295092,122317.602012,14663189.625452,63083.397594,-0.475972,0.003001,1.723232,-54079.822804,-10267.362585,281735.677111,1491.21761,-628514.975552,-78.302917,-42.777485,35.525431
19.77999999998201,985.798651,816821.0,111.005824,168026.107351,-1058.682251,-608335.037003,15.875198,283.679926,-95.04017,27.204151,1.093645,-107.615199,2.751685,111.266942,122627.956798,14673425.857349,62884.965725,-0.477196,0.003007,1.72768,-57993.942284,-10534.099475,299537.29628,1588.962699,-628519.20108,-78.303468,-42.78543,35.518038
20.299999999981537,1044.560108,814255.1875,114.854637,168041.440354,-1058.112998,-608395.371137,15.879772,283.680177,-95.041976,28.155444,1.117143,-111.344558,2.8357,115.265377,122991.877855,14684305.435076,62715.485297,-0.47843,0.003013,1.73216,-61886.361996,-10918.389821,318271.510475,1698.398432,-628523.461463,-78.304027,-42.793968,35.510064
20.820214843731264,1105.372727,811688.4375,118.729157,168057.25452,-1057.530677,-608457.70036,16.379749,283.678601,-95.048414,28.950692,1.144159,-115.139745,3.182436,120.164306,123764.661994,14695022.613041,63636.705085,-0.485376,0.003054,1.757321,-57190.88734,-12103.634741,353056.995476,1825.462222,-628532.114349,-78.304643,-42.804507,35.500136
21.33964843748072,1168.164354,809125.5625,122.612408,168073.440355,-1056.934468,-608521.980057,17.363631,283.668564,-95.058729,29.75306,1.168929,-118.941968,3.283071,123.139306,126006.280226,14704428.283393,63311.521335,-0.488884,0.003074,1.770041,-35104.681178,-13938.137323,403537.545841,1904.522976,-628537.62158,-78.305171,-42.809798,35.495373
21.896015624980464,1237.69993,806380.3125,126.762979,168091.333911,-1056.283446,-608592.78464,18.943442,283.648879,-95.056954,31.104612,1.187643,-122.881835,3.007443,127.322584,124546.47821,14716206.445107,61284.481246,-0.485291,0.00305,1.757048,8500.226617,-16597.433436,479875.875391,2025.104735,-628535.861235,-78.305754,-42.818336,35.487418
22.456015624979955,1310.023199,803617.25,130.923376,168110.224598,-1055.620481,-608666.205906,20.378016,283.638713,-95.049498,32.833121,1.19967,-126.733884,2.437049,131.494332,121805.170411,14728469.782009,60774.446222,-0.482428,0.003029,1.746698,55505.492094,-18642.846528,554073.466356,2150.431499,-628527.175373,-78.306309,-42.826874,35.479434
23.016015624979445,1384.681111,800854.125,135.076893,168130.160493,-1054.950481,-608741.760558,21.670074,283.629893,-95.045503,34.791651,1.211807,-130.513752,1.791296,135.65799,119923.116875,14740947.415636,60499.76751,-0.480495,0.003015,1.739706,101384.744062,-20481.340227,624569.11503,2279.749094,-628514.101791,-78.306819,-42.835412,35.471407
23.576015624978936,1461.668878,798091.0,139.226313,168151.263575,-1054.274287,-608819.40994,22.932275,283.620817,-95.0438,36.972728,1.222105,-134.221795,1.45918,139.810969,118545.420483,14753629.796823,60244.733526,-0.481035,0.003016,1.741667,148380.488282,-22236.531564,695356.482682,2413.025446,-628496.704861,-78.307274,-42.843951,35.463323
24.136015624978427,1540.979034,795327.875,143.370814,168173.665821,-1053.593226,-608899.109851,24.197407,283.610651,-95.042305,39.397282,1.229454,-137.846048,2.096814,143.947124,117166.571027,14766506.549775,59712.675413,-0.481677,0.003018,1.743986,196447.385442,-23957.114,767550.25948,2550.164313,-628474.478007,-78.307659,-42.852489,35.45517
24.696015624977917,1622.60086,792564.8125,147.511277,168197.505863,-1052.908986,-608980.810881,25.466078,283.600452,-95.040578,42.070626,1.233912,-141.379336,3.497584,148.061139,115687.950273,14779567.106812,59105.662438,-0.482457,0.00302,1.746798,244178.460183,-25581.423964,840798.068671,2691.062673,-628447.182137,-78.307962,-42.861028,35.446934
25.256015624977408,1706.520721,789801.75,151.649718,168222.922971,-1052.223109,-609064.460408,26.738802,283.590222,-95.038762,44.992593,1.235692,-144.816354,5.320205,152.147778,114143.631017,14792794.2596,58449.359666,-0.483361,0.003023,1.750046,290452.132567,-27104.047122,914833.024935,2835.610872,-628414.65986,-78.308166,-42.869566,35.4386
25.8160156249769,1792.7218,787038.625,155.787757,168250.057498,-1051.537074,-609150.002205,28.002726,283.580279,-95.03669,48.168738,1.234845,-148.148821,7.472119,156.200223,112508.375866,14806172.306545,57772.580568,-0.484376,0.003027,1.753685,333169.802924,-28498.990882,988555.834467,2983.667972,-628376.613188,-78.30826,-42.878105,35.430155
26.37601562497639,1881.183527,784275.5,159.928795,168279.053337,-1050.85236,-609237.375167,29.219226,283.570497,-95.034105,51.598621,1.23133,-151.37135,9.918644,160.214223,110767.773867,14819691.349727,56937.547553,-0.48551,0.003032,1.757741,367324.179067,-29681.40243,1058383.036319,3135.097815,-628332.839823,-78.308226,-42.886643,35.421583
26.93601562497588,1971.884643,781512.4375,164.081027,168310.044551,-1050.170366,-609326.520174,30.376187,283.561292,-95.031585,55.256724,1.225567,-154.491993,12.621023,164.19108,109067.260409,14833329.733432,56094.059028,-0.486758,0.003037,1.762193,391023.108317,-30614.068011,1122712.746265,3289.854797,-628283.649195,-78.308053,-42.895182,35.412871
27.49601562497537,2064.804508,778749.3125,168.251673,168343.152496,-1049.49225,-609417.382244,31.483094,283.552471,-95.029424,59.124706,1.217764,-157.516385,15.556585,168.131029,107467.598964,14847075.460588,55247.261532,-0.48808,0.003043,1.766892,404856.144994,-31342.319443,1181700.217168,3447.889532,-628229.211847,-78.307728,-42.903721,35.404007
28.05601562497486,2159.922227,775986.1875,172.4465,168378.491414,-1048.819134,-609509.908077,32.541999,283.544003,-95.027336,63.192202,1.20804,-160.446507,18.711256,172.033506,105905.917868,14860916.508659,54370.620804,-0.489446,0.003049,1.771734,408819.153325,-31872.54452,1234924.238143,3609.130711,-628169.531767,-78.307239,-42.913446,35.393647
28.616015624974352,2257.217272,773223.1875,176.672263,168416.167603,-1048.152033,-609604.04693,33.559888,283.536015,-95.025593,67.442634,1.196599,-163.288541,22.066874,175.899879,104437.000402,14874836.430272,53552.220773,-0.490852,0.003055,1.776701,404050.881472,-32211.329465,1282778.323471,3773.547464,-628104.755291,-78.306575,-42.920799,35.385775
29.176015624973843,2356.669226,770460.0,180.933903,168456.281214,-1047.491809,-609699.749845,34.534004,283.527963,-95.023986,71.868417,1.183632,-166.043991,25.61371,179.729998,103024.950647,14888825.616714,52621.142228,-0.492291,0.003061,1.781766,390269.723592,-32402.509025,1324435.996542,3941.075363,-628034.835127,-78.305527,-42.930525,35.375003
29.736015624973334,2458.258599,767696.875,185.237839,168498.92512,-1046.839355,-609796.970816,35.468833,283.52036,-95.022691,76.453146,1.169128,-168.720499,29.334081,183.52675,101699.532064,14902868.592387,51740.153304,-0.493747,0.003068,1.78687,368729.619542,-32418.903142,1360303.175457,4111.714167,-627959.936033,-78.304455,-42.939064,35.365391
30.296015624972824,2561.966764,764933.8125,189.588573,168544.186057,-1046.195436,-609895.666391,36.362035,283.512757,-95.021564,81.189564,1.153317,-171.320611,33.219149,187.291034,100437.586205,14916956.500095,50790.580263,-0.495224,0.003074,1.792022,339438.026685,-32305.835947,1389696.993247,4285.42477,-627880.021738,-78.303436,-42.947603,35.355575
30.856015624972315,2667.776643,762170.75,193.991852,168592.144011,-1045.56077,-609995.796564,37.219219,283.505378,-95.020902,86.062521,1.136277,-173.852783,37.252657,191.026787,99293.590399,14931077.086816,49874.799891,-0.496709,0.00308,1.797179,303960.609947,-32047.149,1413389.913931,4462.237725,-627795.259215,-78.301977,-42.956143,35.345547
31.416015624971806,2775.672575,759407.625,198.451495,168642.873326,-1044.936031,-610097.324323,38.156835,283.496973,-95.020289,91.065483,1.117991,-176.320231,42.034358,195.263141,98208.138945,14945218.307954,48952.396997,-0.498211,0.003087,1.802374,262950.328477,-31679.041177,1431352.84319,4668.088788,-627691.921769,-78.299981,-42.964682,35.335298
31.976015624971296,2885.63972,756644.5,202.970955,168696.444966,-1044.321855,-610200.214405,38.929063,283.489946,-95.019699,96.193445,1.09875,-178.72555,46.359002,198.944198,97118.135636,14959374.420017,47981.098724,-0.499735,0.003094,1.807615,215765.218381,-31176.924549,1442202.342,4851.5214,-627596.682404,-78.298044,-42.973222,35.324823
32.53601562497079,2997.666403,753881.375,207.556665,168752.922173,-1043.718793,-610304.436925,39.673253,283.483849,-95.019638,101.42411,1.078482,-181.084941,50.794167,202.608844,96178.20955,14973532.089994,47207.713387,-0.501276,0.0031,1.812893,165345.893243,-30536.338793,1448351.872367,5038.188215,-627496.903104,-78.295875,-42.981762,35.314113
33.09601562497028,3111.742548,751118.3125,212.20901,168812.364352,-1043.127227,-610409.964681,40.376037,283.477239,-95.019537,106.765798,1.057607,-183.391956,55.345179,206.255079,95251.748797,14987684.999158,46260.633678,-0.502852,0.003107,1.818268,110572.078037,-29860.456609,1447949.549017,5228.003539,-627392.229649,-78.293466,-42.990301,35.303165
33.65601562496977,3227.859713,748355.1875,216.933881,168874.828001,-1042.547686,-610516.772927,41.044274,283.471398,-95.019925,112.197115,1.035853,-185.663791,59.988444,209.893225,94436.82956,15001823.107922,45467.030044,-0.504453,0.003114,1.823698,53202.812006,-29030.484145,1442404.503403,5421.17345,-627283.101741,-78.290813,-42.998841,35.291971
34.21601562496926,3346.013142,745592.0625,221.732214,168940.362819,-1041.98046,-610624.842575,41.671969,283.465236,-95.020265,117.721547,1.0136,-187.898337,64.727292,213.522699,93659.994911,15015941.300701,44597.717076,-0.506112,0.003122,1.829312,-6909.665203,-28164.521285,1430822.48179,5617.665231,-627169.258436,-78.28791,-43.007381,35.280528
34.77601562496875,3466.200126,742829.0,226.609184,169009.0159,-1041.425942,-610734.157341,42.279252,283.45994,-95.021246,123.318085,0.990586,-190.114152,69.538759,217.154706,93023.624259,15030031.91037,43901.351527,-0.5078,0.003129,1.834994,-75418.61961,-27082.264353,1414274.407902,5817.742148,-627051.195938,-78.284753,-43.015922,35.268298
35.33601562496824,3588.421607,740065.875,231.564169,169080.828465,-1040.884327,-610844.706309,42.786626,283.45567,-95.022082,128.994014,0.96733,-192.305936,73.731801,220.784794,92471.791285,15044086.560438,43138.786444,-0.50955,0.003137,1.84087,-126147.050914,-26276.69059,1399977.116075,5992.013038,-626946.778013,-78.281339,-43.024462,35.256877
35.89601562496773,3712.676603,737302.75,236.598208,169155.846215,-1040.355985,-610956.475275,43.44239,283.448386,-95.023881,134.74851,0.94341,-194.475349,79.40542,224.417619,91946.396198,15058103.437505,42333.957996,-0.511347,0.003145,1.846881,-184914.522554,-25306.265487,1380880.604182,6228.487337,-626801.197464,-78.277662,-43.033002,35.24466
36.45601562496722,3838.967542,734539.6875,241.712824,169234.109775,-1039.841184,-611069.454934,43.997475,283.442705,-95.025479,140.575504,0.919112,-196.628513,84.450459,228.054978,91473.021178,15072073.650714,41605.876634,-0.513212,0.003153,1.853101,-242279.732161,-24321.781383,1360315.308806,6439.316024,-626669.249393,-78.27372,-43.041542,35.232178
37.01601562496671,3967.297047,731776.5625,246.90871,169315.660431,-1039.340194,-611183.635949,44.544263,283.436992,-95.027445,146.473813,0.894132,-198.767536,89.565176,231.699704,91063.398005,15085992.14501,40862.02415,-0.515125,0.003162,1.859463,-305375.528906,-23221.862684,1336425.014095,6653.892105,-626532.64578,-78.269508,-43.050083,35.217554
37.5760156249662,4097.668459,729013.5,252.184861,169400.538938,-1038.853303,-611299.009821,44.989858,283.432849,-95.028346,152.451669,0.868875,-200.885384,94.01783,234.823591,90595.502383,15099856.632889,40054.180327,-0.517099,0.003171,1.866004,-352150.662288,-22365.39378,1315979.41512,6840.66869,-626411.877953,-78.265742,-43.057437,35.208305
38.136015624965694,4230.087187,726250.375,257.544964,169488.783728,-1038.380828,-611415.57079,45.537812,283.428066,-95.030962,158.484103,0.842627,-203.006128,99.255997,238.486695,90290.179579,15113659.225327,39681.139457,-0.51911,0.00318,1.872642,-401985.765137,-21359.252075,1297570.01524,7062.402914,-626266.518353,-78.261021,-43.065978,35.195043
38.696015624965185,4364.557027,723487.25,262.983546,169580.43539,-1037.922836,-611533.310766,46.092152,283.421294,-95.034139,164.603896,0.81644,-205.098115,104.58674,242.145467,90064.177277,15127395.273559,38911.520348,-0.521165,0.00319,1.879401,-449271.433382,-20571.729205,1280718.395666,7287.713988,-626115.566652,-78.256019,-43.074519,35.1815
39.256015624964675,4501.075509,720724.1875,268.501115,169675.543976,-1037.479902,-611652.212479,46.617005,283.414876,-95.03657,170.810745,0.789535,-207.161566,110.002978,245.80393,89729.470096,15141062.953797,38056.496844,-0.52325,0.003199,1.886228,-496366.159324,-19680.764797,1260831.465276,7516.614765,-625958.872267,-78.250732,-43.083059,35.167673
39.816015624964166,4639.645903,717961.0625,274.100837,169774.15168,-1037.052308,-611772.266727,47.125035,283.409226,-95.039034,177.08702,0.762069,-209.214903,115.486198,249.473364,89411.931637,15154652.468302,37371.249914,-0.525393,0.003209,1.893225,-542197.473174,-18747.685638,1239682.929482,7749.442324,-625796.927373,-78.245157,-43.0916,35.153557
40.37601562496366,4780.274268,715198.0,279.782364,169876.297424,-1036.640219,-611893.468052,47.636725,283.403416,-95.041994,183.435288,0.734211,-211.256071,121.04184,253.151021,89161.986301,15168162.77257,36741.256136,-0.527573,0.003219,1.900315,-585520.196879,-17877.612585,1220444.562823,7986.199013,-625629.511109,-78.23929,-43.100141,35.139149
40.93601562496315,4922.964072,712434.875,285.544361,169982.02376,-1036.243903,-612015.807236,48.147651,283.39719,-95.045147,189.86068,0.705792,-213.279174,126.673957,256.833957,88934.900342,15181589.187151,36040.27946,-0.529782,0.00323,1.907466,-634493.705559,-16728.233489,1195784.951734,8226.806537,-625456.284482,-78.233127,-43.108683,35.124445
41.49601562496264,5067.718782,709671.75,291.386692,170091.372719,-1035.863669,-612139.275135,48.650922,283.39061,-95.048645,196.359726,0.676827,-215.28726,132.378895,260.524144,88761.121207,15194927.251535,35298.771559,-0.532013,0.00324,1.914654,-680261.501451,-15655.959723,1172740.080722,8471.343479,-625277.229289,-78.226665,-43.117224,35.109441
42.05601562496213,5214.542749,706908.6875,297.309393,170204.385305,-1035.499871,-612263.863745,49.148652,283.383871,-95.052375,202.931761,0.647185,-217.281285,138.155742,264.222038,88620.555114,15208170.676943,34559.997935,-0.534258,0.00325,1.921847,-724628.121449,-14671.015431,1153645.997406,8719.860512,-625092.229315,-78.219899,-43.125765,35.094134
42.61601562496162,5363.43664,704145.5625,303.299818,170321.102711,-1035.152869,-612389.561108,49.630679,283.37649,-95.056169,209.574829,0.616972,-219.245958,144.002868,267.910374,88500.67322,15221319.949031,33637.878244,-0.53626,0.003259,1.928122,-791851.9106,-13848.414745,1161443.680594,8971.973473,-624901.065564,-78.212826,-43.134306,35.07852
43.17601562496111,5514.390695,701382.5,309.322431,170441.552121,-1034.823192,-612516.348275,50.130696,283.369622,-95.060684,216.250685,0.585658,-221.168859,149.891751,271.561487,88458.153965,15234365.272345,33010.156481,-0.537361,0.003263,1.931116,-892804.610322,-13188.982445,1210872.298884,9227.05759,-624704.711536,-78.205444,-43.142848,35.062596
43.7360156249606,5667.370113,698619.375,315.33084,170565.749838,-1034.511356,-612644.183261,50.638893,283.361599,-95.06536,222.951247,0.5529,-222.993216,155.827082,275.12029,88408.90838,15247302.015368,32137.987834,-0.536828,0.003256,1.928198,-1029249.028826,-12747.453214,1298151.647183,9483.472395,-624502.821754,-78.19775,-43.151389,35.046361
44.29601562496009,5822.315455,695856.25,321.289297,170693.70163,-1034.21833,-612773.001373,51.127925,283.353224,-95.069947,229.648979,0.518684,-224.695104,161.785264,278.561146,88356.467314,15260122.523832,31136.922254,-0.534412,0.003238,1.918485,-1190857.967534,-12354.769632,1406810.710605,9740.200068,-624295.99121,-78.189743,-43.159931,35.029811
44.85601562495958,5979.156725,693093.125,327.174691,170825.397385,-1033.944973,-612902.731315,51.592214,283.344496,-95.074695,236.319212,0.483071,-226.265939,167.744899,281.870945,88354.169347,15272815.888064,30041.771397,-0.530417,0.00321,1.903079,-1369942.945327,-11987.689026,1527155.625065,9996.611236,-624084.913327,-78.181421,-43.169659,35.010486
45.41601562495907,6137.821312,690330.0625,332.971573,170960.811229,-1033.692189,-613033.303417,52.078372,283.336762,-95.080109,242.933788,0.445758,-227.712635,173.685326,285.043989,88404.20231,15285374.814767,29354.549851,-0.525295,0.003176,1.883609,-1560700.55269,-11650.506458,1658941.52579,10252.456771,-623870.608349,-78.171466,-43.178201,34.993265
45.97601562495856,6298.223838,687566.9375,338.667486,171099.91871,-1033.460715,-613164.634306,52.557546,283.32797,-95.085089,249.512196,0.40679,-228.995993,179.630687,288.472028,88374.117902,15297787.890525,28317.041963,-0.519449,0.003138,1.861529,-1754902.684438,-11369.571019,1789404.06813,10506.572303,-623652.02541,-78.162475,-43.186743,34.975732
46.536015624958054,6460.277986,684803.875,344.265162,171242.692714,-1033.251609,-613296.640324,53.100554,283.318857,-95.090919,256.032263,0.366338,-230.143102,186.39913,291.316844,88317.725433,15310050.369292,27607.226013,-0.513276,0.003097,1.838272,-1945159.16424,-10958.124508,1911368.802427,10795.26854,-623397.748213,-78.153172,-43.195285,34.957887
47.096015624957545,6623.902748,682040.75,349.774017,171389.105284,-1033.065446,-613429.243512,53.492892,283.312469,-95.09481,262.510611,0.324784,-231.149165,192.314421,294.025388,88256.568284,15322152.587865,26701.165113,-0.507248,0.003057,1.815521,-2121196.494923,-10486.632936,2014428.102829,11010.40896,-623204.524193,-78.143558,-43.203827,34.939731
47.656015624957035,6789.028062,679277.625,355.215679,171539.131692,-1032.902969,-613562.376325,53.961952,283.305825,-95.099646,268.944737,0.282186,-232.049191,197.377532,296.260258,88160.949369,15334088.465912,26167.750786,-0.50183,0.003022,1.79495,-2274840.456528,-9905.700739,2095664.292975,11260.714191,-622975.424088,-78.135132,-43.212369,34.921265
48.216015624956526,6955.593785,676514.5625,360.618945,171692.759588,-1032.764539,-613695.978006,54.419251,283.298539,-95.103962,275.374183,0.238799,-232.841202,204.152684,299.136343,87985.124,15345850.969019,25367.274882,-0.497532,0.002993,1.77837,-2393508.869538,-9279.897472,2143048.359432,11510.344475,-622741.40152,-78.123399,-43.220912,34.902488
48.77601562495602,7123.557677,673751.4375,366.028468,171849.992475,-1032.650668,-613830.001897,54.914833,283.290516,-95.108462,281.822347,0.194917,-233.565765,210.120878,301.606795,87656.067023,15357443.050821,24654.614872,-0.494903,0.002974,1.76774,-2464237.024486,-8520.638548,2147213.09717,11796.57916,-622466.902402,-78.112852,-43.229454,34.883398
49.33601562495551,7292.907524,670988.375,371.494605,172010.847518,-1032.56155,-613964.428629,55.37179,283.285762,-95.112344,288.304767,0.150345,-234.28312,216.132088,304.083601,87380.211555,15368853.577807,24350.273259,-0.494347,0.002968,1.764491,-2507205.107366,-7760.976224,2130987.40734,12049.679536,-622221.016866,-78.101992,-43.237996,34.863996
49.896015624955,7463.642085,668225.25,377.026894,172175.356488,-1032.497158,-614099.246064,55.82702,283.279406,-95.11585,294.863256,0.106061,-234.95729,222.229469,306.541274,87058.285366,15380089.587576,23689.960113,-0.495416,0.002971,1.767005,-2551153.02644,-7003.714797,2109821.561463,12304.527633,-621967.310078,-78.090814,-43.246539,34.842591
50.45601562495449,7635.754696,665462.125,382.63177,172343.561257,-1032.457856,-614234.433519,56.210313,283.276384,-95.11793,301.485647,0.061052,-235.612972,227.505777,308.652197,86675.981674,15391147.194638,23184.606901,-0.497391,0.00298,1.772706,-2579950.752056,-6368.937241,2091182.805954,12524.982782,-621744.77847,-78.081039,-43.253895,34.82542
51.01601562495398,7809.250056,662699.0,388.312589,172515.496592,-1032.443588,-614369.984011,56.743331,283.26929,-95.122799,308.17412,0.016366,-236.252784,234.61886,311.47125,86385.760968,15402026.694097,22772.660313,-0.499632,0.00299,1.779312,-2610802.798301,-5722.450274,2069368.908421,12821.856707,-621438.587029,-78.067492,-43.263624,34.803868
51.57601562495347,7984.124262,659935.9375,394.072049,172691.207825,-1032.454462,-614505.87857,57.117496,283.262901,-95.126233,314.952137,-0.028552,-236.850017,240.937343,313.932749,86017.384363,15412728.72697,21947.846562,-0.502099,0.003002,1.786675,-2634354.791731,-5082.431369,2041032.350154,13083.903887,-621161.918701,-78.055341,-43.272167,34.783173
52.13601562495296,8160.379923,657172.8125,399.919038,172870.739689,-1032.490728,-614642.105061,57.588263,283.25725,-95.12921,321.807101,-0.073672,-237.43509,247.326623,316.41364,85517.438341,15423251.682481,21282.898368,-0.504851,0.003015,1.795,-2649851.016479,-4385.532032,2006257.39235,13348.876108,-620877.2367,-78.042856,-43.28071,34.762146
52.69601562495245,8338.031924,654409.6875,405.860563,173054.132157,-1032.552358,-614778.665336,58.032073,283.253073,-95.13262,328.72683,-0.119164,-238.036664,253.779899,318.924579,85102.040701,15435048.021242,21033.665173,-0.507925,0.003031,1.804414,-2665998.564413,-3673.834796,1969479.160974,13617.482511,-620585.098578,-78.030037,-43.289253,34.737677
53.25601562495194,8517.091114,651646.625,411.894181,173241.430236,-1032.639205,-614915.555545,58.489193,283.247518,-95.135974,335.741946,-0.164368,-238.608748,260.337663,321.43153,84687.659858,15443763.486354,20507.866802,-0.511207,0.003047,1.814516,-2675745.047149,-3198.303299,1942162.545448,13888.530825,-620283.293423,-78.016877,-43.297796,34.719081
53.81601562495143,8697.555984,648883.5,418.024731,173432.691055,-1032.75153,-615052.755475,58.85395,283.243566,-95.138927,342.856076,-0.209991,-239.153388,266.986051,323.953995,84221.29456,15453752.881992,19767.194846,-0.514667,0.003065,1.82519,-2679980.519544,-2638.051461,1904675.357032,14162.489297,-619971.943716,-78.003372,-43.30634,34.697033
54.376015624950924,8879.440688,646120.4375,424.259844,173627.963723,-1032.889416,-615190.26333,59.287675,283.238555,-95.141616,350.053577,-0.255471,-239.705744,272.748172,326.141878,83802.324825,15463566.232866,19344.415602,-0.518355,0.003084,1.836611,-2679961.627068,-2094.591164,1865949.665559,14400.276795,-619698.430652,-77.989519,-43.314883,34.674636
54.936015624950414,9062.757799,643357.3125,430.602234,173827.302281,-1033.05278,-615328.074168,59.713742,283.23239,-95.145179,357.357936,-0.301011,-240.236341,279.567551,328.708123,83386.725119,15473198.265857,18614.388716,-0.522324,0.003104,1.848964,-2674443.675911,-1602.037798,1824448.017617,14680.542781,-619368.9673,-77.977424,-43.323426,34.651885
55.496015624949905,9247.521222,640594.25,437.057113,174030.763379,-1033.241823,-615466.183568,60.205443,283.226129,-95.149214,364.758717,-0.346778,-240.769346,287.472938,331.680034,82912.823129,15482655.95257,18154.536482,-0.526547,0.003126,1.862153,-2665434.519043,-1112.318419,1782431.513701,15005.509793,-618979.664874,-77.960745,-43.33197,34.628775
56.056015624949396,9433.745407,637831.125,443.629066,174238.406462,-1033.456486,-615604.586761,60.561337,283.221728,-95.151702,372.273469,-0.392678,-241.286259,294.506777,334.30769,82435.004643,15491920.707372,17441.065063,-0.531032,0.00315,1.876197,-2648166.68775,-655.680285,1735803.801087,15252.20244,-618678.762276,-77.945814,-43.340513,34.605301
56.616015624948886,9621.449336,635068.0,450.323757,174450.292486,-1033.696939,-615743.28313,60.986712,283.215627,-95.155634,379.892495,-0.438662,-241.811881,301.639518,336.973434,81921.622068,15500956.383001,16987.986574,-0.535777,0.003175,1.891088,-2630526.021221,-209.097254,1690971.61274,15586.044,-618264.11844,-77.930515,-43.349057,34.581457
57.17601562494838,9810.649956,632304.9375,457.141207,174666.485037,-1033.963101,-615882.269055,61.402923,283.211193,-95.158892,387.632172,-0.484728,-242.320341,308.886969,339.665062,81421.243144,15509761.217178,16252.843526,-0.54073,0.003201,1.906639,-2608960.691419,186.391919,1644720.895263,15882.155867,-617888.658346,-77.914841,-43.357601,34.55724
57.73601562494787,10001.36634,629541.8125,464.08603,174887.048403,-1034.255153,-616021.542787,61.885602,283.204836,-95.162214,395.482114,-0.53089,-242.836281,316.239144,342.397058,80909.546433,15518338.965309,15767.304994,-0.545855,0.003228,1.922718,-2583741.576849,570.835313,1598056.69762,16182.713894,-617501.358647,-77.898787,-43.366145,34.532642
58.29601562494736,10193.61722,626778.6875,471.161054,175112.049798,-1034.573039,-616161.10124,62.296628,283.198927,-95.165576,403.459399,-0.577174,-243.337049,323.711711,345.159407,80414.635585,15526695.259567,15017.571595,-0.55116,0.003256,1.93935,-2549747.581718,952.476087,1542995.16804,16487.328655,-617100.894804,-77.882347,-43.374689,34.50403
58.85601562494685,10387.421759,624015.625,478.370692,175341.559091,-1034.916955,-616300.94087,62.686914,283.192986,-95.16881,411.561814,-0.623498,-243.833966,331.299738,347.962413,79830.230163,15534831.400384,14285.179619,-0.55669,0.003286,1.956687,-2515207.089431,1269.220024,1493031.600536,16796.430144,-616687.130851,-77.863017,-43.384419,34.478598
59.41601562494634,10582.80674,621252.5,485.719186,175575.643831,-1035.286897,-616441.066548,63.106478,283.188264,-95.172381,419.778328,-0.670216,-244.353913,338.993789,350.819923,79300.82789,15542750.561825,13887.336761,-0.56245,0.003317,1.974744,-2478531.995799,1562.174568,1444400.495049,17110.905066,-616260.629077,-77.848287,-43.392963,34.452768
59.97601562494583,10779.796191,618489.375,493.207489,175814.375461,-1035.682832,-616581.479014,63.522776,283.18181,-95.176048,428.13702,-0.716772,-244.850577,346.830477,353.698535,78792.5631,15550460.896995,13133.989153,-0.568391,0.003348,1.993348,-2438426.772468,1788.927346,1395135.655263,17429.442728,-615818.707076,-77.830654,-43.401508,34.426533
60.53601562494532,10978.404176,615726.3125,500.840086,176057.834523,-1036.105052,-616722.16587,63.891176,283.176574,-95.178192,436.640511,-0.763967,-245.32687,354.79767,356.616675,78128.070319,15559005.217255,12373.149818,-0.574529,0.003381,2.012547,-2393017.493846,2018.106291,1343303.376538,17752.686979,-615361.446439,-77.812612,-43.408865,34.403746
61.09601562494481,11178.664431,612963.1875,508.621859,176306.091598,-1036.553652,-616863.137837,64.267436,283.175603,-95.180272,445.245367,-0.811358,-245.870088,361.69502,359.18915,77603.672755,15565263.224933,12213.684983,-0.580891,0.003415,2.032433,-2354124.137656,2221.351811,1301776.808648,18035.475222,-614960.065579,-77.796878,-43.416223,34.380654
61.6560156249443,11380.60698,610200.125,516.551497,176559.22084,-1037.028401,-617004.400577,64.733541,283.166263,-95.187186,454.013438,-0.858301,-246.366617,369.899149,362.193122,77331.553194,15572365.218335,11447.693005,-0.587405,0.00345,2.052746,-2307016.934439,2344.216977,1254150.426742,18368.944719,-614474.449622,-77.778058,-43.424768,34.35329
62.21601562494379,11584.234036,607437.0,524.632239,176817.315705,-1037.529792,-617145.925096,65.133473,283.158494,-95.191326,462.943927,-0.905517,-246.821973,378.25831,365.219211,76852.528545,15579277.256249,10369.516541,-0.594054,0.003486,2.073428,-2256015.95585,2483.338841,1204297.304259,18706.606878,-613970.51353,-77.758808,-43.433313,34.325496
62.776015624943284,11789.573226,604673.9375,532.867131,177080.455254,-1038.058007,-617287.712744,65.514042,283.152809,-95.195217,472.004055,-0.953177,-247.302735,386.72877,368.315414,76376.229589,15585996.709638,9751.410058,-0.600848,0.003522,2.094505,-2205770.066694,2632.126708,1155915.509349,19050.693208,-613450.735116,-77.739123,-43.441857,34.297265
63.336015624942775,11996.66031,601910.8125,541.255811,177348.713596,-1038.612956,-617429.774546,65.929309,283.146547,-95.199991,481.204128,-1.000987,-247.789101,395.33305,371.458871,75905.195129,15592528.038943,9232.765678,-0.607773,0.003559,2.115928,-2152754.776821,2746.430454,1108402.160766,19400.754848,-612913.758388,-77.718995,-43.450402,34.268593
63.896015624942265,12205.515352,599147.6875,549.801034,177622.176283,-1039.194775,-617572.101702,66.34551,283.139771,-95.204379,490.562669,-1.049197,-248.250567,404.092183,374.630696,75369.30073,15598874.917877,8497.968771,-0.614808,0.003597,2.137617,-2098528.002887,2838.233093,1061737.500551,19755.996844,-612357.4699,-77.698418,-43.458947,34.239471
64.45601562494176,12416.157214,596384.5625,558.503011,177900.930445,-1039.803687,-617714.683473,66.742253,283.133317,-95.208519,500.072034,-1.097683,-248.701365,412.991605,377.845812,74831.608619,15605041.109392,7744.746034,-0.621942,0.003635,2.159531,-2045381.365958,2923.470489,1016556.14383,20117.00848,-611782.028118,-77.677383,-43.467492,34.209891
65.01601562494125,12628.612472,593621.5,567.360929,178185.057875,-1040.439793,-617857.518451,67.141533,283.126637,-95.213389,509.72603,-1.146324,-249.151528,422.025505,381.109357,74360.635278,15611028.315404,7122.763444,-0.629143,0.003674,2.181558,-1992691.781061,2994.862798,973017.457495,20484.262633,-611187.460921,-77.655885,-43.476037,34.179848
65.57601562494074,12842.905613,590858.375,576.374393,178474.641229,-1041.103218,-618000.602565,67.549251,283.119413,-95.218692,519.530378,-1.195209,-249.588057,431.203548,384.409929,73895.719358,15616844.26918,6460.619107,-0.63636,0.003712,2.203512,-1940815.581558,3053.257698,931383.364212,20857.482775,-610572.641232,-77.633916,-43.484582,34.146096
66.13601562494023,13059.054261,588095.25,585.541653,178769.766415,-1041.79415,-618143.923419,67.938568,283.111772,-95.22369,529.488299,-1.244424,-249.99924,440.52776,387.741615,73426.093775,15622488.020482,5601.221981,-0.643564,0.00375,2.225292,-1892826.534796,3104.785105,892413.025648,21236.391004,-609936.571791,-77.61147,-43.493127,34.113849
66.69601562493972,13277.082266,585332.1875,594.858215,179070.513138,-1042.512814,-618287.476635,68.343761,283.105252,-95.22884,539.581658,-1.293904,-250.412172,449.978435,391.119711,72912.962677,15627966.902434,5086.944368,-0.650692,0.003788,2.246684,-1848702.404193,3172.352134,856790.941871,21622.001876,-609280.357125,-77.588538,-43.502859,34.082302
67.25601562493921,13497.006425,582569.0625,604.320117,179376.962029,-1043.259198,-618431.24997,68.745432,283.097066,-95.234656,549.824726,-1.34366,-250.7863,459.576614,394.513665,72463.454948,15633279.582474,4281.338255,-0.657673,0.003825,2.267433,-1809857.358075,3223.508856,824524.025354,22013.007259,-608601.719349,-77.565115,-43.510218,34.05145
67.8160156249387,13718.840527,579806.0,613.920918,179689.19154,-1044.033618,-618575.228421,69.14964,283.089616,-95.240448,560.199154,-1.393816,-251.145095,469.29942,397.939376,71981.746633,15638430.555695,3673.361376,-0.664439,0.003861,2.287313,-1777670.623257,3296.248353,796257.6469,22410.263309,-607901.73726,-77.541194,-43.518763,34.022431
68.37601562493819,13942.597812,577042.875,623.653882,180007.275473,-1044.836161,-618719.397497,69.558919,283.081333,-95.246769,570.706461,-1.444311,-251.468117,479.153491,401.378412,71522.851473,15643423.847389,2980.471643,-0.670949,0.003894,2.306181,-1752541.024784,3370.186447,771976.530737,22813.080467,-607179.327931,-77.516769,-43.527309,33.985868
68.93601562493768,14168.283938,574279.8125,633.511025,180331.286401,-1045.66703,-618863.7349,69.958359,283.072505,-95.253523,581.339132,-1.495029,-251.751461,489.130774,404.827381,71111.132848,15648262.482988,2233.640423,-0.677134,0.003926,2.323798,-1735127.008864,3454.73561,751496.124946,23221.306412,-606434.336148,-77.491833,-43.535855,33.955978
69.49601562493717,14395.903877,571516.6875,643.487628,180661.29221,-1046.526426,-619008.218713,70.341609,283.062907,-95.260758,592.091409,-1.545978,-251.995437,499.225204,408.287546,70769.125482,15652951.61117,1398.628984,-0.683053,0.003957,2.340375,-1718513.130652,3532.235831,731563.631928,23634.987525,-605666.584592,-77.46638,-43.544401,33.92198
70.05601562493666,14625.469423,568753.5625,653.584416,180997.356454,-1047.414569,-619152.835125,70.7501,283.054175,-95.268298,602.955144,-1.597318,-252.220404,509.429656,411.769251,70363.343018,15657494.955754,874.873804,-0.688848,0.003986,2.356399,-1700028.841805,3610.401877,711865.86069,24055.022714,-604876.516391,-77.440406,-43.552946,33.882458
70.61601562493615,14856.982847,565990.4375,663.803289,181339.548555,-1048.331538,-619297.558412,71.151605,283.043775,-95.276198,613.950456,-1.649072,-252.382498,519.770378,415.242519,69986.798237,15661893.189855,7.502623,-0.694687,0.004016,2.372444,-1681407.907568,3666.543543,692458.353833,24479.918596,-604061.124076,-77.410013,-43.562679,33.847334
71.17601562493564,15090.447313,563227.375,674.144139,181687.937843,-1049.277696,-619442.363523,71.551896,283.034818,-95.28353,625.06228,-1.701305,-252.516477,530.224355,418.735173,69531.786579,15666152.022218,-625.452031,-0.700622,0.004046,2.388683,-1663307.309218,3733.434153,673750.273491,24911.105672,-603221.630482,-77.386867,-43.570038,33.811675
71.73601562493513,15325.868431,560464.25,684.607174,182042.592189,-1050.253105,-619587.22809,71.946194,283.024514,-95.291655,636.300032,-1.753725,-252.598844,540.805821,422.731642,69141.318236,15670266.607356,-1423.050314,-0.706633,0.004077,2.405044,-1644562.670641,3780.894631,655128.116109,25347.816865,-602356.164944,-77.355246,-43.579771,33.775474
72.29601562493463,15563.252526,557701.1875,695.19358,182403.579684,-1051.25801,-619732.13013,72.352522,283.014595,-95.300165,647.655974,-1.806393,-252.651122,551.504244,425.741108,68725.045095,15674243.676034,-2013.821941,-0.712712,0.004108,2.421501,-1625644.218623,3828.211293,637151.062052,25791.048298,-601465.14203,-77.331168,-43.587131,33.744038
72.85601562493412,15802.601799,554938.0625,705.903679,182770.970571,-1052.292487,-619877.042425,72.748818,283.003072,-95.309332,659.142405,-1.859451,-252.641717,562.33666,429.247699,68369.5272,15678081.74003,-2869.481913,-0.718876,0.004139,2.438105,-1606071.956117,3855.940877,619189.952362,26239.690718,-600546.179504,-77.302494,-43.595677,33.706817
73.4160156249336,16043.921077,552174.9375,716.738937,183144.834491,-1053.356877,-620021.940354,73.151211,282.992735,-95.318275,670.74821,-1.912919,-252.602223,573.286149,432.773414,67943.583104,15681785.655894,-3460.719793,-0.72514,0.004171,2.454901,-1586335.522652,3889.271783,601750.749156,26695.176398,-599600.18363,-77.273263,-43.604224,33.669039
73.9760156249331,16287.214223,549411.875,727.699529,183525.241788,-1054.451226,-620166.797764,73.547323,282.980603,-95.328196,682.484701,-1.966577,-252.502216,584.369698,436.296039,67592.295266,15685357.845233,-4284.910926,-0.731491,0.004203,2.471849,-1566111.135152,3905.191904,584454.245862,27156.423985,-598624.776712,-77.243467,-43.61277,33.626333
74.53601562493259,16532.485853,546648.75,738.786792,183912.262957,-1055.575807,-620311.588917,73.951905,282.969016,-95.338358,694.34302,-2.020632,-252.36801,595.573771,439.835307,67202.381456,15688803.109069,-4895.314694,-0.737941,0.004235,2.488977,-1545772.060374,3923.765695,567728.39072,27624.694623,-597620.566668,-77.213101,-43.621317,33.591784
75.09601562493208,16779.738359,543885.6875,750.001075,184305.969725,-1056.73074,-620456.285048,74.347384,282.956081,-95.349057,706.334168,-2.075078,-252.169289,606.914566,443.369913,66853.244078,15692122.022711,-5739.432721,-0.744482,0.004269,2.506259,-1524644.699874,3928.636865,550981.953236,28098.888349,-596585.085468,-77.182159,-43.629863,33.547767
75.65601562493157,17028.976394,541122.5,761.344426,184706.433628,-1057.91633,-620600.859466,74.750853,282.943949,-95.359861,718.449028,-2.129846,-251.936088,618.377537,446.922769,66448.355965,15695320.418559,-6324.53596,-0.75114,0.004302,2.52378,-1502368.24298,3935.90392,534414.622456,28580.48112,-595519.056736,-77.150635,-43.639597,33.506426
76.21601562493106,17280.203073,538359.5,772.818068,185113.727748,-1059.132626,-620745.283059,75.147143,282.929988,-95.371707,730.699604,-2.18486,-251.636803,629.980433,450.471212,66116.280015,15698402.813733,-7147.791254,-0.757925,0.004336,2.541563,-1479284.013048,3930.732193,517871.228264,29068.317872,-594419.771308,-77.118521,-43.648144,33.465681
76.77601562493055,17533.422857,535596.3125,784.423351,185527.925413,-1060.379917,-620889.527681,75.551197,282.916444,-95.386334,743.076883,-2.240296,-251.300063,643.394612,454.546278,65747.444311,15701373.017094,-7753.41638,-0.764837,0.004371,2.559609,-1456850.071875,3934.571165,502143.358793,29635.191999,-593122.947697,-77.081031,-43.656691,33.42434
77.33601562493004,17788.638197,532833.25,796.159871,185949.100625,-1061.658319,-621033.562515,75.947079,282.898442,-95.399263,755.590687,-2.296052,-250.894365,655.282347,458.108575,65433.492751,15704236.734594,-8588.289609,-0.771845,0.004407,2.577813,-1433886.362945,3924.692614,486513.376363,30138.307633,-591950.919426,-77.047635,-43.665238,33.382397
77.89601562492953,18045.853272,530070.125,808.029314,186377.327209,-1062.968131,-621177.358223,76.41018,282.883711,-95.412744,768.232315,-2.352192,-250.449495,667.298385,461.68576,65055.659065,15706995.762602,-9171.83605,-0.778948,0.004443,2.596157,-1407924.064281,3918.280499,469465.274154,30649.400764,-590744.072251,-77.01363,-43.673785,33.339845
78.45601562492902,18305.072112,527307.0625,820.031451,186812.67924,-1064.309435,-621320.88484,76.761881,282.870904,-95.424366,781.009911,-2.408705,-249.938587,677.711342,465.2578,64684.718198,15709651.708844,-9867.648646,-0.786137,0.004479,2.614617,-1388606.682326,3910.646623,457197.85834,31093.085458,-589680.500431,-76.97901,-43.682332,33.296678
79.01601562492851,18566.292375,524543.9375,832.16737,187255.233197,-1065.682467,-621464.10463,77.159058,282.852036,-95.440886,793.923079,-2.465494,-249.364386,691.750464,468.834818,64321.273032,15712204.59245,-10620.187337,-0.793428,0.004515,2.633234,-1365176.882347,3896.102551,442698.033153,31693.16622,-588217.943537,-76.943768,-43.690879,33.252889
79.576015624928,18829.51667,521780.8125,844.438945,187705.064598,-1067.087388,-621606.984901,77.599405,282.834803,-95.456349,806.971242,-2.52248,-248.733158,704.178451,472.423771,64042.360356,15714659.356958,-11412.467612,-0.80084,0.004553,2.652075,-1340739.80398,3873.688099,427949.638433,32226.976203,-586897.193464,-76.907898,-43.699427,33.208471
80.1360156249275,19094.753021,519017.75,856.847264,188162.247996,-1068.524416,-621749.498489,77.984438,282.815742,-95.473743,820.153841,-2.579655,-248.048899,716.743899,476.019991,63721.987664,15717013.45882,-12114.677108,-0.808383,0.004591,2.671163,-1316387.860903,3851.944521,413712.542244,32769.06321,-585536.434843,-76.871393,-43.707974,33.163419
80.69601562492699,19362.009396,516254.625,869.392839,188626.858254,-1069.99368,-621891.617661,78.411036,282.797515,-95.491323,833.466265,-2.637443,-247.327593,729.442376,479.629095,63277.660362,15719275.812332,-12518.390072,-0.816033,0.004629,2.690413,-1294189.334007,3842.075066,401301.901723,33320.422074,-584135.518791,-76.834247,-43.716522,33.117725
81.25601562492648,19631.283282,513491.53125,882.073257,189098.972767,-1071.495238,-622033.302528,78.773982,282.782045,-95.505423,846.923176,-2.695671,-246.509833,742.297703,483.211899,62920.165012,15721443.974544,-13303.442354,-0.823734,0.004668,2.70964,-1272200.956568,3814.791683,389407.044523,33798.375406,-582899.773352,-76.796454,-43.72507,33.071384
81.81601562492597,19902.562481,510728.40625,894.89107,189578.671973,-1073.029429,-622174.501694,79.146873,282.761219,-95.523852,860.52081,-2.753989,-245.61429,753.427685,486.288953,62663.927949,15723516.990265,-14244.660767,-0.83153,0.004707,2.728983,-1247640.012573,3780.666019,375950.168377,34363.437827,-581416.18141,-76.763598,-43.733618,33.024387
82.37601562492546,20175.862941,507965.3125,907.849788,190066.029436,-1074.596429,-622315.194812,79.549144,282.735776,-95.548567,874.246229,-2.812343,-244.697488,768.408172,490.428561,62404.06701,15725506.447412,-14620.866932,-0.839468,0.004746,2.748592,-1224386.15426,3755.897545,363797.556965,35022.705459,-579667.800541,-76.718895,-43.742165,32.97673
82.93601562492495,20451.187473,505202.21875,920.946411,190561.122366,-1076.196272,-622455.346238,80.018894,282.710684,-95.571768,888.116964,-2.871167,-243.684854,781.68475,494.026545,62166.887131,15727409.271601,-15389.243829,-0.847517,0.004786,2.768357,-1201922.385842,3718.338575,352500.192069,35607.815189,-578086.612801,-76.679117,-43.750713,32.928404
83.49601562492444,20728.529901,502439.125,934.182752,191064.030336,-1077.829285,-622594.90972,80.362871,282.686362,-95.59476,902.12502,-2.930476,-242.609305,795.100086,497.633426,61832.322023,15729230.611866,-16037.427235,-0.855656,0.004827,2.788212,-1179217.232132,3691.087445,341266.922564,36202.714179,-576457.769577,-76.638665,-43.759262,32.879404
84.05601562492393,21007.891612,499676.0,947.55959,191574.831219,-1079.49553,-622733.846943,80.812683,282.659763,-95.619764,916.274321,-2.989996,-241.457255,808.660214,501.241082,61615.609838,15730975.697678,-16793.113767,-0.863899,0.004868,2.808193,-1156101.537022,3650.56624,329962.108511,36807.121982,-574779.059116,-76.597531,-43.76781,32.823729
84.61601562492342,21289.275105,496912.90625,961.078325,192093.603177,-1081.19528,-622872.120171,81.195923,282.630534,-95.647415,930.563329,-3.04984,-240.237664,822.363443,504.854182,61418.582179,15732644.002863,-17519.582145,-0.87227,0.00491,2.828376,-1132751.634607,3608.659072,318742.169936,37421.657711,-573049.262985,-76.555709,-43.776358,32.779351
85.17601562492291,21572.686633,494149.8125,974.740549,192620.423933,-1082.928758,-623009.695219,81.609601,282.600566,-95.676838,944.988207,-3.110207,-238.970194,836.203997,508.483412,61142.375868,15734242.488986,-17983.753621,-0.880773,0.004952,2.848763,-1110549.283738,3576.577686,308633.097545,38047.829399,-571268.159464,-76.513193,-43.784906,32.728287
85.7360156249224,21858.129784,491386.71875,988.544204,193155.371655,-1084.696105,-623146.534463,81.983356,282.574736,-95.70202,959.556478,-3.171063,-237.615137,848.194164,511.576044,60855.029074,15735775.736783,-18552.725128,-0.88936,0.004994,2.869203,-1089590.119079,3541.579593,299827.852626,38592.136926,-569697.799594,-76.469975,-43.793455,32.67652
86.29601562492189,22145.587381,488623.625,1002.489549,193698.529177,-1086.497532,-623282.576558,82.42642,282.535275,-95.738571,974.273459,-3.232164,-236.148419,864.355826,515.684266,60643.930555,15737246.197146,-19512.739704,-0.898049,0.005037,2.889739,-1066719.30527,3493.865698,289727.215704,39328.505942,-567536.889596,-76.426048,-43.802003,32.624044
86.85601562492138,22435.066518,485860.5,1016.582257,194249.974965,-1088.333327,-623417.786366,82.828278,282.500111,-95.773416,989.125635,-3.293423,-234.646792,878.640604,519.311433,60407.193399,15738661.690133,-19943.989574,-0.906892,0.005081,2.910541,-1043800.497214,3455.036122,279938.636166,39987.21289,-565586.791921,-76.381405,-43.810552,32.570853
87.41601562492087,22726.573531,483097.40625,1030.82026,194809.788248,-1090.203514,-623552.127176,83.237068,282.45943,-95.812726,1004.125082,-3.354942,-233.049291,893.085436,522.919491,60253.330737,15740019.816652,-20604.731664,-0.915887,0.005126,2.931595,-1018280.674819,3398.272066,269669.8806,40656.473959,-563575.46834,-76.33604,-43.819101,32.510339
87.97601562492036,23020.100012,480334.3125,1045.204813,195378.051609,-1092.108384,-623685.545212,83.560166,282.417274,-95.853151,1019.271457,-3.416899,-231.359294,907.68292,526.524787,60068.040748,15741324.267337,-21400.650696,-0.925025,0.005171,2.952865,-998183.356292,3352.227065,261380.88983,41337.299133,-561501.594511,-76.289946,-43.827649,32.462296
88.53601562491986,23315.652009,477571.1875,1059.739933,195954.845471,-1094.048151,-623818.001933,83.963897,282.373385,-95.896832,1034.55746,-3.479288,-229.624656,922.418432,530.157756,59794.809751,15742574.922778,-21804.39178,-0.934319,0.005216,2.974384,-975530.717745,3310.664392,252529.268569,42033.009796,-559366.185222,-76.243115,-43.836198,32.406916
89.09601562491935,23613.234605,474808.09375,1074.422544,196540.25062,-1096.022888,-623949.457089,84.437293,282.322312,-95.946278,1049.993732,-3.541967,-227.781518,937.322204,533.759557,59613.827409,15743771.228228,-22490.338141,-0.943737,0.005263,2.996049,-953560.682924,3257.457416,244480.032991,42739.719512,-557162.576748,-76.19554,-43.844747,32.350793
89.65601562491884,23912.836479,472045.0,1089.255513,197134.351121,-1098.032866,-624079.85159,84.840199,282.271238,-95.996415,1065.575758,-3.605072,-225.860309,952.372029,537.376225,59378.240836,15744918.419566,-23112.28658,-0.953292,0.00531,3.017892,-931275.461516,3211.130348,236195.360329,43460.927267,-554891.773364,-76.147215,-43.853296,32.293919
90.21601562491833,24214.466373,469281.875,1104.239701,197737.22778,-1100.078246,-624209.147786,85.208568,282.211985,-96.055115,1081.303438,-3.668513,-223.863207,967.578488,540.987274,59176.563903,15746012.155591,-23543.000801,-0.962977,0.005357,3.039888,-910010.726973,3164.55699,228942.062245,44196.268422,-552550.613072,-76.098133,-43.861846,32.236287
90.77601562491782,24518.112542,466518.8125,1119.373287,198348.964992,-1102.159181,-624337.284775,85.60757,282.159339,-96.106407,1097.184209,-3.732217,-221.741827,982.949644,544.578218,59077.777272,15747057.596423,-24373.096365,-0.972793,0.005405,3.062031,-888216.581757,3106.568602,221197.169871,44836.334856,-550484.556647,-76.048285,-43.870395,32.17789
91.33601562491731,24823.775988,463755.6875,1134.661526,198969.645604,-1104.275984,-624464.214858,86.069727,282.080007,-96.184882,1113.209264,-3.796225,-219.562066,998.465569,548.192513,58933.138337,15748054.372268,-24830.292201,-0.982762,0.005454,3.084389,-866670.059724,3056.933009,213658.251809,45709.537221,-547645.512982,-75.997665,-43.878944,32.118721
91.8960156249168,25131.460095,460992.59375,1150.102361,199599.352408,-1106.428772,-624589.892197,86.416331,282.014145,-96.261529,1129.385519,-3.860608,-217.276056,1014.145899,551.790291,58843.649137,15749004.418934,-25458.783458,-0.992878,0.005504,3.106931,-845690.310808,3000.322027,206590.059248,46489.504683,-545077.438634,-75.946266,-43.887494,32.058772
92.45601562491629,25441.158343,458229.5,1165.69712,200238.169869,-1108.617826,-624714.259352,86.802133,281.93417,-96.328683,1145.712165,-3.925346,-214.890673,1027.716307,554.865878,58719.7595,15749910.318264,-26158.803876,-1.003136,0.005554,3.12964,-824556.927294,2943.901019,199270.549449,47170.557597,-542812.116788,-75.901643,-43.896043,31.998037
93.01601562491578,25752.875873,455466.375,1181.449418,200886.181262,-1110.84329,-624837.270819,87.275305,281.824366,-96.438111,1162.184973,-3.990419,-212.44503,1045.971176,559.004189,58538.697464,15750773.877528,-26528.04613,-1.013548,0.005605,3.152543,-804350.661465,2897.007027,192679.847204,48101.376356,-539699.026392,-75.841101,-43.904593,31.936508
93.57601562491527,26066.617877,452703.28125,1197.355984,201543.469818,-1113.105327,-624958.880465,87.716923,281.711803,-96.549808,1178.809172,-4.056127,-209.890061,1062.12951,562.591123,58363.246392,15751597.327501,-26984.276762,-1.024078,0.005656,3.175527,-785596.333749,2850.542225,187388.618014,48933.440909,-536881.993543,-75.78732,-43.913143,31.874178
94.13601562491476,26382.361712,449940.1875,1213.415687,202210.122039,-1115.404144,-625079.011145,88.103187,281.598437,-96.661267,1195.588261,-4.122033,-207.193988,1078.454921,566.159809,58271.766302,15752378.711968,-27872.987734,-1.034736,0.005708,3.198611,-765999.958668,2794.965657,181044.870387,49782.0971,-533974.00293,-75.732731,-43.921692,31.811039
94.69601562491425,26700.109378,447177.0625,1229.635438,202886.22212,-1117.740007,-625197.611603,88.479897,281.469802,-96.789477,1212.515724,-4.188038,-204.429424,1094.928236,569.757519,58226.236834,15753124.799655,-28403.532789,-1.045564,0.00576,3.221925,-746185.637351,2738.654241,174308.420489,50652.748106,-530976.266042,-75.677326,-43.930242,31.747084
